City,Lat,Lng,Max Temp,Humidity,Cloudiness,Wind Speed,Country,Date
fortuna,40.5982,-124.1573,55.89,83,100,3,US,1655701248
abu dhabi,24.4667,54.3667,93.96,57,18,4,AE,1655701202
kapaa,22.0752,-159.319,77.22,83,100,13.8,US,1655701248
barrow,71.2906,-156.7887,55.42,71,0,11.5,US,1655701249
srednekolymsk,67.45,153.6833,62.92,36,95,17.96,RU,1655701249
russell,32.3502,-85.1999,72.7,46,1,5.3,US,1655701250
bluff,-46.6,168.3333,45.81,74,49,7.34,NZ,1655701250
punta arenas,-53.15,-70.9167,37.11,74,44,15.28,CL,1655701250
leningradskiy,69.3833,178.4167,55.51,55,81,10.67,RU,1655701251
richards bay,-28.783,32.0377,64.35,81,92,4.41,ZA,1655701251
rikitea,-23.1203,-134.9692,71.58,58,76,19.71,PF,1655701251
georgetown,5.4112,100.3354,87.73,70,20,6.91,MY,1655701208
taolanaro,3.0707,172.7902,83.08,73,98,12.33,KI,1655701252
butaritari,6.9904,-5.7442,74.97,94,99,3.29,CI,1655701252
bouafle,-20.4081,57.7,73.26,68,6,13.85,MU,1655701253
mahebourg,-16.2567,-56.6228,69.75,78,0,2.93,BR,1655701253
pocone,-33.65,115.3333,64.17,75,87,11.59,AU,1655701254
busselton,78.2186,15.6401,39.04,60,0,9.22,SJ,1655701254
barentsburg,-5.5344,-40.7742,72.63,63,32,4.14,BR,1655701255
longyearbyen,31.6167,130.4,78.91,96,100,6.55,JP,1655701256
novo oriente,-21.2,-175.2,77.52,90,100,16.35,TO,1655701256
illoqqortoormiut,-16.4833,-151.75,80.1,76,21,22.01,PF,1655701257
ijuin,-10.2667,40.1833,69.85,80,5,10.09,TZ,1655701257
vaini,7.7669,-72.225,63.39,97,57,2.75,VE,1655701257
faanui,-16.3667,-58.4,69.33,82,0,3.4,BO,1655701258
mtwara,70.3705,31.1107,42.78,100,100,3.44,NO,1655701258
san cristobal,-54.8,-68.3,31.66,93,75,9.22,AR,1655701129
san matias,-14.2694,-71.2261,39.07,50,1,2.77,PE,1655701258
vardo,55.7435,-97.8558,65.12,91,98,4.52,CA,1655701259
ushuaia,-2.0226,147.2712,82.09,75,40,3.65,PG,1655701259
sicuani,-42.7826,147.0587,52.75,80,97,3,AU,1655701259
thompson,64.3833,-173.3,39.31,100,100,8.95,RU,1655701260
lorengau,3.4568,8.5547,77.29,85,86,5.44,GQ,1655701261
new norfolk,5.5577,95.3222,85.21,65,74,5.61,ID,1655701261
provideniya,67.6713,53.087,57.42,54,54,7.87,RU,1655701262
luba,19.7297,-155.09,74.12,92,20,1.01,US,1655701263
banda aceh,-34.4187,19.2345,44.8,84,0,13.2,ZA,1655701263
belushya guba,7.9986,124.2928,76.91,84,79,2.3,PH,1655701263
naryan-mar,42.6001,-73.9662,54.16,65,2,8.01,US,1655701264
hilo,-38.0023,-57.5575,42.1,90,59,1.99,AR,1655701264
hermanus,-31.95,141.4333,63.66,35,70,12.66,AU,1655701265
marawi,-33.5906,26.891,58.28,76,87,4.23,ZA,1655701265
albany,29.1614,16.139,80.17,25,5,7.02,LY,1655701266
mar del plata,53.3808,142.9564,57.2,72,63,10.11,RU,1655701268
broken hill,18.0217,121.1842,93.27,56,83,1.99,PH,1655701268
samusu,57.5411,25.4275,53.42,90,60,5.37,LV,1655701269
port alfred,37.4,136.9,81.28,57,40,9.22,JP,1655701200
waddan,-46.1927,168.8643,45.48,96,55,1.77,NZ,1655701269
burica,-6.8,39.25,72.19,83,98,7.7,TZ,1655701270
tungor,-34.5322,20.0403,47.64,87,0,3.74,ZA,1655701270
kabugao,64.8378,-147.7164,60.85,73,75,4.61,US,1655701271
bargal,71.9667,102.5,57.18,37,100,4.09,RU,1655701272
valmiera,69.4541,-133.0374,33.35,94,69,10.31,CA,1655701273
wajima,-0.7193,8.7815,73.45,84,100,16.06,GA,1655701273
mataura,-31.5375,-68.5364,47.82,35,51,1.95,AR,1655701274
magomeni,43.6778,4.1361,67.91,88,0,5.75,FR,1655701275
bredasdorp,14.9215,-23.5087,75.09,92,100,8.75,CV,1655701234
fairbanks,47.8043,67.7144,82.38,32,40,6.71,KZ,1655701275
westpunt,-19.2333,17.7167,50.74,54,3,3.91,NA,1655701207
khatanga,-20.2833,44.2833,69.93,65,0,9.73,MG,1655701277
tuktoyaktuk,42.097,-79.2353,55.6,72,93,2.33,US,1655700993
port-gentil,-20.1883,32.6236,49.75,66,0,3.42,ZW,1655701277
san juan,-0.7393,-90.3518,69.55,96,91,1.99,EC,1655701278
viligili,-3.2003,-59.8119,74.03,86,11,3.33,BR,1655701278
lunel,59.7035,30.7861,56.98,68,42,10.42,RU,1655701279
praia,24.6877,46.7219,99.9,6,4,3.15,SA,1655701204
zhezkazgan,28.5004,-13.8627,69.55,83,40,20.71,ES,1655701281
tsumeb,71.9167,114.0833,53.76,37,43,7.43,RU,1655701282
warqla,68.75,161.3,55.06,71,100,18.43,RU,1655701282
morondava,-15.1961,12.1522,58.37,83,0,2.75,AO,1655701283
jamestown,5.7833,36.5667,64.22,86,97,2.04,ET,1655701284
chipinge,77.484,-69.3632,33.49,77,32,7.96,GL,1655701285
puerto ayora,-33.9258,18.4232,54.23,73,3,11.01,ZA,1655701217
careiro da varzea,49.7834,-74.8492,45.75,62,57,3.67,CA,1655701285
nikolskoye,50.6789,156.125,48.88,93,98,2.01,RU,1655701270
karkaralinsk,53.5334,-114.0021,56.97,85,60,6.73,CA,1655701286
palabuhanratu,-37.6167,-73.65,50.99,93,100,10,CL,1655701286
riyadh,-34.23,19.4265,42.06,93,1,7.74,ZA,1655701286
puerto del rosario,-20.5167,57.5167,72.25,69,26,13.33,MU,1655701287
saskylakh,62.2266,-6.589,50.92,97,99,9.64,FO,1655701287
tsihombe,-14.2667,50.1667,73.24,81,22,15.84,MG,1655701287
cherskiy,-3.3333,128.9167,80.13,79,97,4.36,ID,1655701287
namibe,22.2855,114.1577,86.94,79,99,15.99,HK,1655701153
kamenskoye,42.1584,-72.3287,51.98,79,2,3.78,US,1655701288
yanchukan,-25.2986,152.8535,70.02,70,66,7,AU,1655701288
bako,63.05,179.3167,45.32,90,100,12.95,RU,1655701289
qaanaaq,10.5669,72.642,82.69,76,99,15.28,IN,1655701290
cape town,41.3888,2.159,72.88,82,75,4.61,ES,1655701212
chapais,37.9333,-121.3011,71.11,37,0,11.5,US,1655701290
severo-kurilsk,16.7619,96.5278,78.96,66,49,9.22,MM,1655701291
stony plain,66.3167,-179.1667,36.93,97,100,6.4,RU,1655701291
lebu,-40.9597,175.6575,45.88,78,100,9.82,NZ,1655701190
caledon,22.5667,59.5289,93.88,49,1,3.96,OM,1655701292
souillac,-0.9492,100.3543,86.05,82,100,2.73,ID,1655701293
klaksvik,-4.8828,-66.8958,75.34,68,100,1.97,BR,1655701026
sambava,38.5167,-28.7,63.32,76,34,21.34,PT,1655701293
amahai,-21.3585,55.7679,63.99,77,80,15.46,RE,1655701294
victoria,30.3658,-88.5561,77.2,84,0,5.37,US,1655701295
palmer,-42.8794,147.3294,55.27,75,75,3,AU,1655701035
hervey bay,73.5069,80.5464,37.29,92,100,11.12,RU,1655701295
beringovskiy,39.4547,75.9797,74.46,39,92,3.94,CN,1655701296
kavaratti,36.6177,-121.9166,54.21,85,24,4,US,1655701296
barcelona,17.1503,-25.0201,70.56,88,84,11.32,CV,1655701297
san joaquin,71.0357,27.8492,44.55,93,100,0,NO,1655701298
thongwa,26.1842,127.7558,85.28,84,75,12.66,JP,1655701024
egvekinot,17.8815,-76.4093,77.7,85,100,9.82,JM,1655701298
masterton,49.6261,-1.6435,55.89,88,100,20.71,FR,1655701299
dekoa,20.5022,-10.0711,80.44,59,89,10.11,MR,1655701300
sur,23.0411,-81.5775,75.07,84,96,1.79,CU,1655701301
padang,69.3913,20.2679,52.95,78,97,0.47,NO,1655701301
carauari,72.7868,-56.1549,31.51,92,24,12.95,GL,1655701301
ribeira grande,60.1432,-45.2371,40.05,98,100,4.52,GL,1655701301
saint-philippe,38.9342,100.4517,61.83,85,100,8.14,CN,1655701303
pascagoula,-5.1131,105.3067,84.83,68,25,4.54,ID,1655701248
hobart,-21.2078,-159.775,77.05,78,75,13.8,CK,1655701304
dikson,-13.8833,167.55,79.99,71,23,4.36,VU,1655701304
kashi,-33.918,25.5701,50.31,94,84,1.99,ZA,1655701305
pacific grove,6.9833,39.1833,56.73,73,47,3.42,ET,1655701106
pombas,63.7898,74.523,76.21,36,65,7.05,RU,1655701306
yirol,-7.8447,-79.1469,62.44,86,22,6.91,PE,1655701306
mehamn,62.1564,-7.1664,49.12,100,100,8.05,FO,1655701306
nishihara,37.5683,126.9778,81.37,59,75,5.75,KR,1655701036
morant bay,-33.8667,121.9,59.9,68,99,11.79,AU,1655701243
octeville,20.8947,-156.47,77.85,85,31,5.99,US,1655701308
vaitupu,-33.6971,-53.4616,43.07,72,36,5.03,UY,1655701309
adrar,46.6166,10.7002,59.36,82,2,2.33,IT,1655701309
matanzas,-0.6,73.0833,82.99,71,94,10.02,MV,1655701309
skibotn,48.4219,42.2308,79.75,53,2,5.7,RU,1655701310
upernavik,57.0531,-135.33,52.2,90,100,2.37,US,1655701310
nanortalik,-26.6481,15.1594,54,82,27,14.03,NA,1655701222
zhangye,-43.3002,-65.1023,40.05,63,0,11.36,AR,1655701311
metro,52.4986,36.3275,68.09,81,2,16.93,RU,1655701311
avarua,5.6,27.4667,68.72,88,100,2.28,SS,1655701312
sola,56.1616,15.5866,48.65,61,36,6.02,SE,1655701313
saleaula,-20.7377,116.8463,80.73,34,0,14.85,AU,1655701220
port elizabeth,-31.6333,-60.7,49.6,75,71,1.99,AR,1655701314
dodola,40.2833,97.2,79.88,16,100,15.46,CN,1655701314
amderma,-45.4167,167.7167,41.02,93,39,2.82,NZ,1655701229
muravlenko,47.6666,-52.7314,53.49,91,53,1.99,CA,1655701315
chicama,53.0675,76.1036,76.75,45,10,6.96,KZ,1655701317
vestmanna,40.3471,-74.0643,61,53,0,8.05,US,1655701318
bacuit,69.2167,-51.1,33.82,93,75,3.44,GL,1655701318
seoul,12.5058,39.5228,69.31,26,100,1.92,ET,1655701319
esperance,53.6039,91.3903,71.85,60,0,2.24,RU,1655701319
kahului,30.3,71.9333,90.73,34,90,5.95,PK,1655701319
chuy,28.8947,64.4101,92.12,12,2,12.71,PK,1655701320
lasa,48.9167,2.3333,59.45,95,100,12.66,FR,1655701204
hithadhoo,6.9833,35.5833,61.54,97,100,0.27,ET,1655701320
chernyshkovskiy,21.3906,-158.1547,77.07,64,17,7.74,US,1655701321
sitka,36.8656,-87.4886,61.41,98,3,7.38,US,1655701265
luderitz,35.1333,140.3,78.82,87,100,16.6,JP,1655701321
rawson,18.4411,1.4078,88.66,29,81,4.09,ML,1655701322
glazunovka,42.8518,44.0037,66.97,68,19,1.57,RU,1655701323
tambura,29.3669,-94.9669,81.43,82,0,4.61,US,1655701323
karlskrona,24.3833,91.4167,83.05,80,95,9.19,BD,1655701323
karratha,50.2673,32.942,69.62,63,1,10.2,UA,1655701324
santa fe,41.1875,61.4036,86.43,18,70,16.13,TM,1655701325
yumen,-8.9266,125.4092,72.23,43,65,4.29,TL,1655701325
te anau,2.1833,22.4667,69.22,97,99,0.98,CD,1655701325
torbay,-0.6136,-47.3561,77.95,84,100,10.11,BR,1655701325
tabiauea,70.6333,147.9167,38.37,83,100,22.84,RU,1655701326
kachiry,24.7,-77.7667,80.19,67,70,3.47,BS,1655701326
red bank,-22.8833,-43.1036,62.46,91,51,6.76,BR,1655701326
ilulissat,36.6167,101.7667,56.19,85,100,3.09,CN,1655701320
mys shmidta,41.7758,140.7367,72.34,50,0,14.67,JP,1655701311
korem,-20.9333,-66.2333,30.81,16,0,6.8,BO,1655701327
belyy yar,60.9167,-46.05,44.82,97,100,2.37,GL,1655701328
khanewal,-35.3333,-72.4167,50.67,63,100,3.36,CL,1655701328
dalbandin,-8.4192,20.7447,58.73,44,54,3.85,AO,1655701329
saint-denis,68.0531,39.5131,40.32,93,100,12.73,RU,1655701329
mizan teferi,-8.2578,-49.2647,71.73,51,8,2.01,BR,1655701330
nizhneyansk,57.79,-152.4072,51.31,82,100,11.5,US,1655701331
nanakuli,71.6872,128.8694,37.35,62,88,8.03,RU,1655701331
hopkinsville,62.456,-114.3525,55.49,46,2,5.21,CA,1655701332
katsuura,-17.8,-63.1667,65.68,75,0,5.66,BO,1655701228
kidal,45.5234,-122.6762,58.73,84,100,5.75,US,1655701332
sadon,-8.145,159.5921,82.92,72,88,5.03,SB,1655701332
galveston,41.1415,-73.3579,55.85,67,0,1.99,US,1655701332
habiganj,6.4965,2.6036,74.57,90,100,3.71,BJ,1655701230
chornukhy,-9.8,-139.0333,77.7,81,28,18.45,PF,1655701333
gazojak,32.6667,-17.1,66.52,67,84,8.55,PT,1655701334
airai,38.8876,-76.5119,60.58,62,51,1.01,US,1655701334
bumba,57.4244,25.9016,53.55,90,58,4.68,LV,1655701334
salinopolis,65.6145,-37.6368,44.76,68,80,6.17,GL,1655701335
chokurdakh,-1.95,18.2667,67.3,91,83,1.92,CD,1655701335
andros town,60.3964,-1.353,49.96,85,78,11.12,GB,1655701336
umzimvubu,-29.9533,-71.3436,53.62,90,100,0.31,CL,1655701336
niteroi,41.3712,-73.414,53.89,69,0,4.61,US,1655701336
xining,-46.1333,167.6833,44.51,85,5,3.67,NZ,1655701337
hakodate,66.0449,-17.3389,46.92,98,100,12.01,IS,1655701337
atocha,-2.95,25.95,68.02,97,99,0.98,CD,1655701338
narsaq,69.7008,170.3133,50.2,57,35,18.19,RU,1655701338
constitucion,20.4335,99.8762,89.82,51,85,2.82,TH,1655701339
lucapa,60.3778,92.6267,68.31,66,99,6.17,RU,1655701340
ostrovnoy,5.9485,80.5353,84.36,68,90,11.39,LK,1655701340
conceicao do araguaia,37.8031,-89.0276,62.47,81,0,0,US,1655701340
shchelyayur,14.05,78.75,86.67,52,100,12.35,IN,1655701340
kodiak,16.25,100.4167,91.69,49,85,6.78,TH,1655701254
tiksi,5.8808,-10.0467,75.9,81,17,0.58,LR,1655701341
yellowknife,63.4427,-20.2734,49.19,94,100,14.9,IS,1655701341
santa cruz,-2.9248,-39.9167,76.01,89,2,12.1,BR,1655701343
portland,60.7522,-137.5108,53.6,55,28,6.8,CA,1655701343
buala,-21.15,149.2,73.69,71,87,14.94,AU,1655701231
westport,-24.7911,-50.0119,51.53,90,72,4,BR,1655701344
porto novo,42.5617,-2.356,61.12,72,0,8.05,ES,1655701345
atuona,-0.8667,134.0833,82.78,67,100,4.76,ID,1655701097
ponta do sol,-46.2817,169.8464,43.7,86,55,0.94,NZ,1655701346
mayo,-6.9811,-34.8339,74.98,86,19,9.82,BR,1655701341
smiltene,23.9167,-106.9,80.47,76,100,3.47,MX,1655701346
tasiilaq,-23.5333,148.1667,71.35,50,99,11.32,AU,1655701346
inongo,4.8517,31.5825,68.22,91,100,2.37,SS,1655701347
brae,-22.9661,-42.0278,68.47,75,23,11.72,BR,1655701347
coquimbo,46.0667,26.15,61.52,65,0,2.17,RO,1655701347
bethel,18.7333,-103.6833,78.73,84,86,0.6,MX,1655701348
tuatapere,64.7001,43.3936,57.92,62,100,5.19,RU,1655701349
husavik,14.8961,-24.4956,73.58,94,100,10.45,CV,1655701349
kindu,57.4667,-1.7833,48.58,86,48,10.07,GB,1655701349
pevek,-13.255,-43.4181,69.82,48,43,6.17,BR,1655701349
mae sai,-2.7906,-49.6717,70.83,99,43,3.02,BR,1655701349
teya,4.4133,32.5678,69.08,86,95,2.66,SS,1655701350
matara,-32.8167,-56.5167,42.01,76,21,4.81,UY,1655701350
herrin,-34.6534,-58.6198,47.93,67,100,3.04,AR,1655701350
rayachoti,-45.5752,-72.0662,32.61,95,29,6.71,CL,1655701351
phichit,-18.05,-63.4333,61.81,84,0,3.96,BO,1655701351
buchanan,17.9583,-102.2,80.26,79,99,3.24,MX,1655701351
vestmannaeyjar,56.9514,90.6661,71.29,53,47,3.44,RU,1655701352
halalo,21.6422,69.6093,91.38,66,40,13.8,IN,1655701188
itarema,-5.1989,-35.4608,73.06,90,48,9.04,BR,1655701353
haines junction,29.2947,117.2079,77.34,96,100,4.5,CN,1655701353
mackay,10.6167,104.1833,89.65,59,80,7.23,KH,1655701354
castro,36.1632,-82.831,57.56,71,0,3.44,US,1655701354
aras,47.0975,-56.3814,52.63,98,92,28.23,PM,1655701355
manokwari,-16.8392,36.9856,60.17,91,14,2.01,MZ,1655701356
kaitangata,32.767,22.6367,74.12,67,0,8.72,LY,1655701356
cabedelo,8.4054,48.4845,78.89,51,90,29.97,SO,1655701356
la cruz,23.2167,-106.4167,81.01,79,48,4,MX,1655701289
emerald,35.7333,140.8333,86.4,80,100,13.24,JP,1655701305
juba,-0.1934,-74.7819,70.79,99,96,1.25,CO,1655701358
arraial do cabo,-26.8241,-65.2226,49.82,57,0,3.15,AR,1655701339
poian,55.1001,-105.2842,57.99,70,100,0.54,CA,1655701358
coahuayana,-27.0797,153.1586,68.77,64,96,11.59,AU,1655701358
sentyabrskiy,0.15,29.2833,56.7,94,91,1.86,CD,1655701359
pinega,61.67,96.37,72.21,33,32,8.32,RU,1655701359
sao filipe,29.5581,34.9482,79.34,47,0,11.86,IL,1655701360
boddam,50.1186,-5.5371,56.08,85,100,17.76,GB,1655701325
bom jesus da lapa,43.4065,-124.2243,55,91,0,9.22,US,1655701361
baiao,54.675,20.1347,57.25,87,94,5.55,RU,1655701361
torit,48.6667,5.9167,66.11,85,75,9.22,FR,1655701361
cumaribo,25.2919,60.643,86.59,71,10,0.69,IR,1655701362
paso de los toros,-29.4667,149.85,66.74,50,56,2.95,AU,1655701362
moron,-33.4569,-70.6483,49.96,58,100,2.3,CL,1655701200
coihaique,60.7333,77.5889,77.4,39,12,4.38,RU,1655701322
jorochito,-30.7414,30.455,65.21,72,100,4.85,ZA,1655701326
lazaro cardenas,61.95,159.2333,46.36,85,100,10.07,RU,1655701363
novobirilyussy,39.05,-27.9833,62.44,73,69,20.27,PT,1655701364
porbandar,-41.8697,-73.8203,37.22,88,99,6.55,CL,1655701364
touros,43.7635,44.2317,75.9,52,0,2.35,RU,1655701364
jingdezhen,-20.3428,57.7575,73.22,67,3,14.09,MU,1655701365
kampot,30.4833,-115.95,62.13,85,0,10.09,MX,1655701365
greeneville,-19.9842,57.6142,73.47,67,0,3,MU,1655701366
kazalinsk,36.652,107.7896,84.6,37,97,16.28,CN,1655701366
miquelon,-25.1667,45.05,62.22,77,0,7.31,MG,1655701366
mocuba,48.2427,41.2531,74.14,53,0,5.26,RU,1655701366
darnah,56.8189,67.3921,63.45,95,93,3.91,RU,1655701368
garowe,47.3161,7.6932,63.64,96,1,3.76,CH,1655701368
mazatlan,30.3222,35.4793,70.57,42,0,3.67,JO,1655701368
hasaki,14.8888,5.2692,87.84,44,44,9.62,NE,1655701369
puerto leguizamo,-22.8392,-42.2289,62.58,88,11,6.29,BR,1655701369
tucuman,-43.5333,172.6333,45.05,84,100,9.22,NZ,1655701252
la ronge,46.6806,113.2792,73.44,35,71,14.85,MN,1655701370
bongaree,39.9612,-82.9988,60.04,75,0,3.44,US,1655701130
butembo,63.7506,-68.5145,40.69,58,28,10,CA,1655701355
baykit,-27,-50,43.45,99,65,0.76,BR,1655701307
elat,62.6667,135.6,78.8,38,53,6.53,RU,1655701372
penzance,68.5333,146.4167,48.67,57,76,21.77,RU,1655701373
north bend,4.25,103.4167,84.72,71,99,5.91,MY,1655701373
svetlyy,-9.0763,143.2092,78.17,87,100,13.47,PG,1655701374
toul,48.3833,-4.6167,58.19,97,100,12.66,FR,1655701375
chabahar,5.3511,-0.6231,75.06,92,97,5.06,GH,1655701169
moree,-21.4167,25.5833,52.18,56,0,8.25,BW,1655701375
bur gabo,56.45,138.1667,51.84,82,51,14.09,RU,1655701376
santiago,33.5928,-7.6192,70.02,81,60,5.21,MA,1655701287
strezhevoy,42.0304,-8.1588,44.71,90,70,2.06,PT,1655701376
port shepstone,62.55,155.55,63.95,38,88,6.49,RU,1655701377
evensk,27.9769,-114.0611,64.06,78,0,14.83,MX,1655701377
lagoa,-35.1667,173.1667,54.1,78,100,14,NZ,1655701377
ancud,65.85,74.4859,74.17,41,100,11.97,RU,1655701377
yekaterinogradskaya,-24.8667,113.6333,71.55,56,0,11.9,AU,1655701378
khonuu,-45.8667,-67.5,39.06,52,0,14.97,AR,1655701379
bambous virieux,37.9085,-121.6002,69.48,28,0,16.11,US,1655701380
san quintin,30.7554,20.2263,77.14,47,0,0.2,LY,1655701381
cap malheureux,-6.6603,-69.8736,72.46,87,90,2.48,BR,1655701381
yuancheng,-34.4833,-54.3333,43.59,67,71,2.64,UY,1655701382
beloha,-13.7,-76.2167,56.01,91,0,2.91,PE,1655701359
uglegorskiy,8.0086,-62.3989,72.19,93,38,5.7,VE,1655701336
yurginskoye,-38.6533,178.0042,51.04,64,100,21.05,NZ,1655701224
balsthal,13.5137,2.1098,86.77,53,2,14.61,NE,1655701383
wadi musa,13.4833,-88.1833,78.46,83,75,3.44,SV,1655701362
tahoua,13.2167,-59.5167,81.21,78,75,19.57,BB,1655701384
iguaba grande,13.7796,124.39,86.92,67,66,5.68,PH,1655701384
christchurch,-8.7676,160.7034,82.02,76,97,1.05,SB,1655701384
baruun-urt,58.1286,68.5944,72.34,68,93,7.72,RU,1655701385
columbus,12.2188,125.4808,85.21,69,75,5.68,PH,1655701385
iqaluit,33.194,-82.5271,67.01,41,2,7.02,US,1655701386
buariki,-3.4536,-44.78,72.18,98,25,2.93,BR,1655701387
santa catarina,50.0163,-125.2446,58.96,77,83,2.33,CA,1655701387
khandyga,35.412,-99.4043,80.74,69,0,11.5,US,1655701388
belaya gora,-23.3167,17.0833,39.18,86,28,11.25,NA,1655701225
cukai,52.9599,4.7593,56.68,77,20,8.99,NL,1655701388
daru,-13.3128,35.2406,51.28,73,6,5.37,MZ,1655701385
plouzane,36.4141,64.9053,84.25,24,50,4.68,AF,1655701389
winneba,41.3165,-73.0932,55.47,79,40,4.61,US,1655701236
letlhakane,-20.1,146.2667,74.41,42,25,11.77,AU,1655701389
ayan,38.421,-121.4238,72,42,0,8.05,US,1655701389
casablanca,-3.8004,102.2655,80.96,78,51,9.1,ID,1655701126
vila,21.4612,-71.1419,80.98,77,99,21.39,TC,1655701383
dukat,70.4692,-68.5914,29.17,91,37,9.8,CA,1655701391
guerrero negro,-34.0033,24.7314,47.25,86,71,4.9,ZA,1655701392
ahipara,67.4667,78.7,68.74,36,85,12.01,RU,1655701392
pangody,45.4306,43.4472,80.31,36,0,4.41,RU,1655701392
carnarvon,4.9333,-52.3333,78.1,1,100,1.14,GF,1655701393
comodoro rivadavia,6.1241,81.1185,86.34,79,20,14.97,LK,1655701393
attawapiskat,-22.6667,167.4833,71.02,56,7,17.6,NC,1655701394
discovery bay,13.2954,19.6966,82.76,54,53,5.91,TD,1655701394
zlatoustovsk,39.1834,-84.5333,60.53,74,0,0,US,1655701394
ajdabiya,49.05,3.4,62.42,95,100,2.71,FR,1655701350
eirunepe,65.282,-126.8329,62.78,80,93,3.65,CA,1655701395
rocha,0.1333,117.5,83.66,71,42,5.19,ID,1655701395
pisco,-20.0064,57.6608,73.38,67,0,3,MU,1655701395
upata,69.6496,18.957,50.38,76,75,2.3,NO,1655701395
gisborne,-15.8631,-38.8828,70.75,86,26,8.28,BR,1655701396
niamey,43.2381,46.0017,73.65,45,0,3.96,RU,1655701372
san miguel,69.3,139.9,41.59,55,83,20.67,RU,1655701396
bathsheba,2.3,111.8167,93.81,47,39,0.96,MY,1655701251
gigmoto,21.935,86.7214,95.11,45,100,2.21,IN,1655701397
auki,65.8167,87.9833,78.96,37,7,10,RU,1655701398
abalak,66.0217,12.6316,50.25,87,75,5.75,NO,1655701398
alugan,-10.1833,-40.9667,63.16,94,3,7.11,BR,1655701399
avera,51.226,-58.6502,47.61,97,100,18.72,CA,1655701399
jahrom,58.0728,93.0344,70.32,60,100,2.59,RU,1655701399
arari,10.3399,-68.7425,71.47,98,71,1.9,VE,1655701400
campbell river,50.8448,37.2913,67.55,71,1,12.73,RU,1655701401
elk city,19.3003,97.9685,89.92,54,71,4.09,TH,1655701401
rehoboth,32.2163,-80.7526,74.12,70,0,1.99,US,1655701401
den helder,-14.6585,17.691,48.81,60,67,2.64,AO,1655701320
lichinga,46.8333,26.4333,68.34,11,0,2.26,RO,1655701402
dawlatabad,54.2797,-0.4044,52.56,82,63,4,GB,1655701303
shelton,9.35,42.8,65.03,64,40,16.33,ET,1655701403
charters towers,68.2191,-135.0107,46.17,65,76,13.58,CA,1655701403
laguna,3.2783,32.8867,64.67,94,92,0.67,UG,1655701405
bengkulu,-8.345,113.6058,85.06,66,53,8.37,ID,1655701406
cockburn town,32.6881,128.8419,75.56,94,75,9.22,JP,1655701306
tarudant,-34.7333,135.8667,59.49,54,84,19.42,AU,1655701245
clyde river,-17.5333,-149.3333,78.82,76,28,21.07,PF,1655701406
kruisfontein,-1.8333,-65.3667,71.02,99,93,3.62,BR,1655701407
tazovskiy,50.2001,-66.3821,44.06,91,100,3,CA,1655701409
letnyaya stavka,6.7297,-3.4964,69.31,99,74,2.19,CI,1655701409
temaraia,-1.2675,116.8289,83.39,84,40,5.75,ID,1655701410
cayenne,39.4167,-0.7833,69.69,89,0,3.98,ES,1655701412
hambantota,29.0331,21.5482,79.41,37,0,4.29,LY,1655701413
vao,20.5411,105.9139,100.65,36,84,9.37,VN,1655701413
oum hadjer,-4.9,35.7833,57.63,77,86,3.22,TZ,1655701413
hamilton,49.4867,105.9228,76.3,44,21,9.04,MN,1655701414
chateau-thierry,64.4803,76.6897,76.48,39,17,7.72,RU,1655701414
norman wells,54.6333,-8.45,50.97,86,28,3.33,IE,1655701415
bontang,41.3003,13.0282,70.81,71,0,2.26,IT,1655701416
grand gaube,61.994,-49.6678,39.11,98,100,22.79,GL,1655701416
tromso,42.2506,-75.833,45.54,80,2,1.01,US,1655701417
belmonte,38.3645,-98.7648,80.73,69,0,18.41,US,1655701416
tsotsin-yurt,-38.2667,141.9667,54.19,80,100,20.4,AU,1655701417
deputatskiy,68.8193,-51.1922,34.05,89,41,2.13,GL,1655701418
sibu,-45.8742,170.5036,46.8,71,80,3,NZ,1655701133
baripada,-7,23.45,69.01,59,95,2.59,CD,1655701418
jabiru,7.4167,81.8167,86.49,66,97,4.03,LK,1655701418
turukhansk,-1.8283,-44.8683,73.71,96,12,2.57,BR,1655701419
sandnessjoen,-33.8679,151.2073,61.56,74,75,5.75,AU,1655700789
laje,42.7297,133.0839,71.53,59,87,9.75,RU,1655701415
saint-augustin,54.65,-8.1167,47.41,95,24,1.41,IE,1655701329
strelka,66.8333,70.8333,71.37,57,87,7.81,RU,1655701420
san felipe,-30.1811,-50.2056,50.92,80,0,5.77,BR,1655701420
spornoye,59.3833,143.3,53.17,81,100,8.46,RU,1655701421
mae hong son,26.5921,12.7805,79.86,19,0,9.69,LY,1655701421
hilton head island,-16.5,-68.15,37.22,44,0,3,BO,1655701293
menongue,34.6391,-120.4579,56.17,81,0,9.22,US,1655701422
piatra soimului,-3.4622,-44.8706,72.01,98,29,2.82,BR,1655701413
scarborough,1.3292,172.9752,82.4,78,75,10.36,KI,1655701422
jijiga,5.3833,-52.95,76.93,86,97,4.45,GF,1655701423
aklavik,21.4447,-157.8378,77.74,71,75,16.11,US,1655701423
kitgum,-23.1333,150.7333,74.98,68,100,13.33,AU,1655701423
ambulu,13.2833,-88.55,79.72,87,100,4.21,SV,1655701424
fukue,25.0213,37.2685,86.02,58,5,13.51,SA,1655701424
port lincoln,-9.6658,-35.7353,75.24,86,13,5.97,BR,1655701307
tiarei,-32.9272,151.7765,62.33,76,75,4,AU,1655701424
maraa,40.4272,71.7189,84.92,23,100,18.41,UZ,1655701425
grand river south east,-5.3166,119.3661,89.62,67,42,3.74,ID,1655701423
sept-iles,-18.5933,-39.7322,66.6,96,36,4.36,BR,1655701423
abengourou,28.6585,-17.9182,64.13,88,100,9.22,ES,1655701426
balikpapan,18.5007,102.4166,91.71,53,76,2.17,LA,1655701427
tuggurt,43.1748,5.6045,70.38,65,0,6.91,FR,1655701310
bunol,17.4924,44.1277,89.44,17,87,6.13,SA,1655701427
jalu,37.1041,-113.5841,69.44,15,0,6.91,US,1655701428
phu ly,-8.0089,-34.8553,74.93,94,75,4.61,BR,1655701428
kondoa,-33.0153,27.9116,61.66,62,100,2.06,ZA,1655701429
darhan,37.6138,-122.4869,55.44,80,0,21.85,US,1655701389
purpe,22.8909,-109.9124,81.48,85,51,2.68,MX,1655701430
killybegs,0.5412,123.0595,83.66,70,100,4.45,ID,1655701430
sabaudia,-12.0432,-77.0282,60.19,82,27,8.79,PE,1655701346
paamiut,35.5333,134.8333,85.53,59,100,2.39,JP,1655701253
broome,-5.2246,145.7966,84.25,66,13,6.46,PG,1655701431
great bend,-28.8667,153.5667,62.02,90,52,12.35,AU,1655701337
codrington,38.6066,44.9883,74.55,47,0,4.14,IR,1655701432
qasigiannguit,9.4942,50.8122,83.14,53,72,30.98,SO,1655701432
dunedin,59.3733,28.6134,56.08,74,65,7.83,RU,1655701326
mwene-ditu,25.3366,-108.2574,82.06,71,88,4,MX,1655701433
kalmunai,2.4312,103.8405,83.97,72,76,12.19,MY,1655701396
tumannyy,-34.5833,150.8552,62.82,77,99,5.99,AU,1655701433
cururupu,-13.8483,136.4192,80.31,63,94,11.61,AU,1655701434
sydney,20.3433,-77.1167,75.47,86,100,3.98,CU,1655701434
vrangel,45.3055,-93.7941,84.88,60,20,10.36,US,1655701434
donegal,-8.4667,140.3333,77.31,90,100,8.32,ID,1655701435
yar-sale,35.25,140.3833,75.25,85,100,16.46,JP,1655701219
cidreira,29.5958,-90.7195,82.18,87,40,4.61,US,1655701390
okhotsk,-32.035,-52.0986,47.34,75,2,5.3,BR,1655701388
awbari,53.7667,-2.7167,49.15,87,0,4.83,GB,1655701435
la paz,-20.7333,139.5,80.37,18,100,9.22,AU,1655701269
lompoc,53.5102,142.9671,55.58,74,62,10.42,RU,1655701436
louisbourg,19.8,105.7667,99.7,39,74,7.87,VN,1655701202
vitoria do mearim,25.5198,90.2201,80.53,81,100,6.49,IN,1655701437
bairiki,1.487,124.8455,90.37,62,40,5.75,ID,1655701202
tarhunah,-22.8167,47.2833,59.99,95,74,1.61,MG,1655701437
sinnamary,53.0452,158.6483,66.79,56,20,13.42,RU,1655701146
ahuimanu,-32.7167,152.15,62.87,79,94,1.01,AU,1655701145
yeppoon,25.2867,51.5333,98.58,30,0,3.44,QA,1655701296
puerto el triunfo,54.0359,19.0266,57.67,90,100,5.41,PL,1655701353
umm lajj,31.6546,-106.3033,77.07,59,100,8.05,US,1655701438
maceio,3.0833,-59.95,75.06,88,100,4.38,BR,1655701439
newcastle,56.8,124.8,71.17,41,100,8.05,RU,1655701439
komsomolskiy,61.9875,5.1352,52.86,83,6,7.2,NO,1655701439
galesong,49.8167,-94.4337,75.79,89,3,8.81,CA,1655701440
conceicao da barra,-35.1,173.7833,53.29,88,100,16.89,NZ,1655701440
los llanos de aridane,65.6835,-18.0878,53.55,91,100,3.22,IS,1655701441
phonhong,-5.5569,-80.8222,62.98,84,42,11.07,PE,1655701413
la ciotat,57.1167,8.6167,51.98,84,21,1.23,DK,1655701442
najran,37.7333,-25.6667,63.32,72,75,9.22,PT,1655701442
saint george,12.5847,-81.7006,80.62,89,75,2.3,CO,1655701442
olinda,2.6708,72.8944,83.46,70,53,9.78,MV,1655701442
east london,22.8747,88.7586,87.71,51,81,7.45,IN,1655701443
pacifica,22.4833,92.9667,74.46,94,100,1.72,IN,1655701444
cabo san lucas,66.5606,67.7975,71.04,53,28,6.49,RU,1655701449
gorontalo,-35.1167,139.2667,60.03,65,89,12.17,AU,1655701382
lima,50.2334,-63.5986,44.96,93,100,16.11,CA,1655701451
toyooka,-6.6447,-51.995,69.37,78,8,1.14,BR,1655701365
madang,7.0419,134.2556,81.1,65,18,0.81,PW,1655701451
ballina,65.75,150.85,54.3,85,100,16.69,RU,1655701451
sarab,5.1367,-5.0242,76.15,86,95,6.31,CI,1655701452
bandarbeyla,-3.7508,103.6372,89.58,48,46,3.53,ID,1655701452
kingisepp,41.2092,36.9739,71.53,64,0,3.49,TR,1655701453
nacozari,46.4333,26.4,63.52,61,0,3.29,RO,1655701454
mersing,34.1667,77.5833,51.66,35,90,5.7,IN,1655701454
flinders,41.7075,-86.895,67.17,55,0,5.75,US,1655701409
alyangula,-23.7,133.8833,76.55,22,0,4.61,AU,1655701455
manzanillo,21.35,-97.6833,74.53,89,81,2.8,MX,1655701372
monticello,44.6272,16.7861,64.96,67,0,4.45,BA,1655701456
merauke,-19.55,169.2667,73.65,75,92,13.98,VU,1655701457
ohara,-3.3836,-57.7186,75.96,83,90,1.39,BR,1655701427
houma,33.662,-112.3413,84.34,13,0,3,US,1655701420
rio grande,-38.0833,177.2833,52.39,71,100,13.62,NZ,1655701457
preston,17.7833,-94.6333,72.34,97,95,6.13,MX,1655701458
mount isa,-16.525,-50.3722,65.75,62,0,3.6,BR,1655701393
ekhabi,49.5776,111.9753,72.66,40,3,18.3,RU,1655701459
thanh hoa,-33.7456,-61.9688,45.77,47,100,5.95,AR,1655701459
tura,19.5233,100.3,87.98,49,79,4.5,TH,1655701460
manado,-19.0595,-169.9187,76.89,94,75,4.61,NU,1655701460
vondrozo,-22.2139,-49.9458,59.43,83,99,2.66,BR,1655701386
petropavlovsk-kamchatskiy,-38.3833,142.4833,53.62,78,100,21.47,AU,1655701363
nelson bay,5.4112,100.3354,87.73,70,20,6.91,MY,1655701461
doha,-31.5889,28.7844,52.5,94,100,3.13,ZA,1655701423
marienburg,47.4736,-94.8803,82.33,61,0,10.36,US,1655701462
socorro,66.7131,27.4306,48.15,69,96,6.26,FI,1655701462
bonfim,-26.3667,-70.05,49.78,54,46,1.3,CL,1655701395
serebryanyy bor,7.9803,49.8164,82.8,54,69,31.07,SO,1655701463
raudeberg,8.4596,25.678,68.56,96,100,4.34,SS,1655701464
kenora,17.0151,54.0924,86.09,84,75,14.97,OM,1655701464
kaeo,14.9167,120.55,93.06,50,9,6.69,PH,1655701465
akureyri,42.6369,141.6033,71.73,68,75,12.66,JP,1655701465
artyk,3.5167,39.0584,64.94,71,100,11.34,KE,1655701466
sechura,14.0219,100.1718,93.97,40,21,8.99,TH,1655701291
buqayq,-3.6667,152.4333,83.95,68,15,5.79,PG,1655701467
hanstholm,60.0625,71.4789,78.58,44,71,7.25,RU,1655701467
ponta delgada,-17.7333,-149.15,78.58,73,48,19.17,PF,1655701467
marcona,52.225,141.5131,48.92,92,78,9.46,RU,1655701468
san andres,-4.3333,-45.1667,70.79,97,16,4.07,BR,1655701468
kudahuvadhoo,57.6409,18.296,59.05,67,0,5.75,SE,1655701294
gobardanga,53.5739,142.9478,54.07,77,67,10.63,RU,1655701468
saiha,1,-52,69.66,99,38,1.07,BR,1655701396
malwan,40.2386,33.0322,63.86,63,0,11.5,TR,1655701469
aksarka,62.5747,11.3842,40.84,87,100,3.44,NO,1655701470
murray bridge,11.1833,40.0167,76.35,39,100,5.17,ET,1655701470
havre-saint-pierre,15.169,121.0616,95.97,44,20,1.54,PH,1655701471
sao felix do xingu,4.423,-7.3528,76.8,81,79,3.36,CI,1655701471
kloulklubed,60.8156,-115.7999,46.85,65,33,3.87,CA,1655701474
zyryanka,-4.2153,-69.9406,71.55,78,93,0.92,CO,1655701241
tasbuget,-34.2,142.15,62.08,61,70,14.34,AU,1655701459
grand-lahou,62.7161,129.6658,82.33,29,31,4.9,RU,1655701474
payo,-7.9589,-79.2392,60.93,88,100,8.05,PE,1655701412
terme,5.5,120.8833,83.48,65,44,1.66,PH,1655701475
asau,30.3392,48.3043,104.5,8,0,4.41,IR,1655701393
leh,46.95,128.8833,77.92,42,96,2.3,CN,1655701476
michigan city,14.708,101.4161,89.82,51,49,8.63,TH,1655701476
alice springs,43.2686,-7.5406,52.14,100,100,1.83,ES,1655701477
naranjos,12.5667,75.3833,84.52,69,100,3.13,IN,1655701442
peci,15.7432,-96.4661,77.83,92,100,2.93,MX,1655701478
isangel,-7.4706,-34.8086,73.99,86,16,8.99,BR,1655701468
maues,20.9,70.3667,86.95,72,85,15.3,IN,1655701412
sun city west,50.0785,47.0994,75.29,54,29,16.62,RU,1655701480
opotiki,32.2501,54.0166,87.82,19,3,15.66,IR,1655701329
hidalgotitlan,36.4337,-99.3904,81.32,63,0,16.11,US,1655701480
sao luis de montes belos,20.1986,1.0114,85.86,31,81,6.4,ML,1655701481
kyra,-16.92,35.262,60.1,92,1,1.88,MW,1655701471
venado tuerto,3.3803,-59.7968,74.21,92,100,5.53,GY,1655701481
chiang kham,22.6783,-3.9836,89.64,27,88,8.75,ML,1655701482
alofi,23.2,-106.2333,76.96,78,100,8.05,MX,1655701482
marilia,51.5877,-2.9984,51.64,82,65,11.56,GB,1655701196
warrnambool,64.8945,-23.7142,48,89,100,10.89,IS,1655701483
george town,32.296,-81.2354,68.36,87,0,3.44,US,1655701484
umtata,9.5667,37.1,52.63,92,99,1.23,ET,1655701439
bemidji,6.7085,121.9711,78.75,86,100,3.67,PH,1655701485
kemijarvi,26.5412,-77.0636,82.6,70,99,4.65,BS,1655701485
diego de almagro,54.1071,11.9005,56.46,94,88,1.01,DE,1655701486
eyl,-28.55,16.4333,52,66,24,7.7,NA,1655701212
raga,29.8,-109.6667,72.82,77,100,5.46,MX,1655701487
salalah,2.0371,45.3438,79.92,74,75,17.49,SO,1655701488
lubao,54.4333,113.6,74.62,32,82,8.21,RU,1655701268
tomakomai,43.3236,145.575,55.15,96,97,1.79,JP,1655701242
moyale,51.5026,58.1873,66.2,55,10,12.12,RU,1655701488
bang len,1.5,21.05,67.93,95,93,1.39,CD,1655701489
namatanai,-3.2778,-39.2689,75.51,91,5,10.83,BR,1655701489
salym,-11.0964,-77.6139,61.02,84,24,12.1,PE,1655701490
tautira,-6.8844,112.2051,85.91,65,32,3.78,ID,1655701490
lazarev,-2.0031,-49.8544,72.05,98,55,2.42,BR,1655701491
lago da pedra,30.8703,120.0933,83.53,70,62,6.46,CN,1655701439
visby,32.3754,15.0925,75.45,72,0,8.52,LY,1655701376
okha,42.7121,41.4721,73,80,66,2.39,GE,1655701493
amapa,43.801,87.6005,85.15,19,0,2.24,CN,1655701381
cubuk,24.0934,32.907,86.77,20,36,17.18,EG,1655701234
roros,15.4916,-13.1763,81.43,65,100,10.96,SN,1655701495
bati,50.5994,97.5228,72.57,35,68,2.82,RU,1655701496
sibul,69.4865,88.3972,74.21,30,100,10.11,RU,1655701496
tabou,45.2333,147.8833,51.67,99,100,1.03,RU,1655701498
hay river,29.9697,40.2064,94.17,17,0,4.61,SA,1655701306
leticia,47.4,0.6667,64.24,91,0,3.44,FR,1655701322
mildura,11.6667,92.75,86.04,74,40,5.75,IN,1655701331
namtsy,46.2168,-72.6158,45.81,80,1,6.4,CA,1655701499
santiago de cao,-1.7656,-55.8661,74.17,85,70,3.51,BR,1655701499
latung,28.5202,68.5434,98.42,40,0,13.44,PK,1655701500
abadan,16.6362,1.637,90.59,28,85,9.95,ML,1655701500
langxiang,36.8197,21.7049,64.26,61,67,5.91,GR,1655701500
pak chong,-19.5314,-54.0439,64.81,89,10,5.14,BR,1655701500
bereda,50.3167,130.3667,76.5,41,98,3.94,RU,1655701501
sulya,-0.8917,119.8707,85.01,74,85,3.11,ID,1655701259
pochutla,50.6336,-96.9907,75.36,92,1,11.79,CA,1655701502
mentok,51.6115,109.5917,76.53,28,10,14.03,RU,1655701502
pitimbu,23.4333,76.2667,91.6,45,9,13.73,IN,1655701503
veraval,28.3267,-82.6834,75.92,89,96,9.44,US,1655701383
savinka,6.3005,-10.7969,76.33,79,16,0.38,LR,1655701504
meybod,7.5,-11.8333,71.02,91,7,2.46,SL,1655701504
woodward,-20.3167,118.5667,82.45,32,0,16.11,AU,1655701225
tessalit,60.7167,-46.0333,39.88,97,100,4.23,GL,1655701506
nsanje,-14.7447,-50.5706,70.77,41,1,2.82,BR,1655701506
lethem,18.0858,-15.9785,76.93,92,100,7.96,MR,1655701318
taoudenni,66.6572,66.4183,70.05,56,29,7.18,RU,1655701507
villa union,40.5219,-111.9391,56.43,48,40,4,US,1655701387
newport,4.1748,73.5089,83.01,72,41,10.92,MV,1655701507
olafsvik,64.2539,-15.2082,53.96,76,46,9.64,IS,1655701507
rincon,-2.65,10,71.62,84,95,7.96,GA,1655701508
shambu,29.0605,-13.564,66.42,83,100,12.66,ES,1655701509
isabela,-21.55,167.8833,71.2,62,0,15.32,NC,1655701509
marsh harbour,-0.8833,131.25,82.08,69,100,3.04,ID,1655701509
bad doberan,9.75,-63.1767,71.29,97,92,3.94,VE,1655701509
churumuco,49.0333,104.0833,70.68,48,70,6.98,MN,1655701471
oranjemund,27.3409,117.4831,75.96,98,100,1.12,CN,1655701510
moctezuma,43.213,-8.691,54.48,94,100,3.74,ES,1655701510
mogadishu,-28.7667,114.6,68.41,64,0,8.05,AU,1655701510
bagdarin,60.34,102.2797,67.78,40,82,10.29,RU,1655701511
nemuro,-17.8786,36.8883,66.38,81,59,1.68,MZ,1655701511
